[{"name":"Jan Kowalski (wpis Demonstracyjny, Premium)","id":"100","lat":"50.068726","lng":"19.943161","district_url":"krakow-stare-miasto","district":"Stare Miasto <em>I<\/em>","catalog_promo_type_id":"3"},{"name":"Gabinet Weterynaryjny - Szpeyer Stanis\u0142aw","id":"47","lat":"50.058998","lng":"19.967201","district_url":"krakow-grzegorzki","district":"Krak\u00f3w Grzeg\u00f3rzki <em>II<\/em>","catalog_promo_type_id":"3"},{"name":"Krzakowski Andrzej","id":"84","lat":"50.052483","lng":"19.927979","district_url":"krakow-debniki","district":"D\u0119bniki <em>VIII<\/em>","catalog_promo_type_id":"3"},{"name":"Bajeczna Przychodnia Weterynaryjna","id":"94","lat":"50.057838","lng":"19.975836","district_url":"krakow-grzegorzki","district":"Krak\u00f3w Grzeg\u00f3rzki <em>II<\/em>","catalog_promo_type_id":"3"},{"name":"Jan Kowalski (wpis Demonstracyjny, Medium)","id":"99","lat":"50.068726","lng":"19.943161","district_url":"krakow-stare-miasto","district":"Stare Miasto <em>I<\/em>","catalog_promo_type_id":"2"},{"name":"Lecznica dla zwierz\u0105t, Kujawski W., S\u0142owi\u0144ski P.","id":"39","lat":"50.059425","lng":"19.926737","district_url":"krakow-stare-miasto","district":"Stare Miasto <em>I<\/em>","catalog_promo_type_id":"2"},{"name":"Jan Kowalski (wpis Demonstracyjny)","id":"98","lat":"50.068726","lng":"19.943161","district_url":"krakow-stare-miasto","district":"Stare Miasto <em>I<\/em>","catalog_promo_type_id":"1"},{"name":"Przychodnia Weterynaryjna - Piotr Czech","id":"11","lat":"50.008209","lng":"19.950186","district_url":"krakow-podgorze-duchackie","district":"Podg\u00f3rze Duchackie <em>XI<\/em>","catalog_promo_type_id":"1"},{"name":"Gabinet Weterynaryjny - Reks Vet - Pawe\u0142 Krok","id":"26","lat":"50.081062","lng":"19.968569","district_url":"krakow-pradnik-czerwony","district":"Pr\u0105dnik Czerwony <em>III<\/em>","catalog_promo_type_id":"1"},{"name":"Gabinet Weterynaryjny - Salus, Zenon P\u00f3\u0142torak","id":"27","lat":"50.051994","lng":"19.951056","district_url":"krakow-stare-miasto","district":"Stare Miasto <em>I<\/em>","catalog_promo_type_id":"1"},{"name":"Gabinet Weterynaryjny - Andrzej Szkar\u0142at","id":"95","lat":"50.088673","lng":"19.967068","district_url":"krakow-mistrzejowice","district":"Mistrzejowice <em>XV<\/em>","catalog_promo_type_id":"1"},{"name":"Gabinet Weterynaryjny - Zoonet, Pawe\u0142 Krok","id":"63","lat":"50.069489","lng":"20.049646","district_url":"krakow-nowa-huta","district":"Nowa Huta <em>XVIII<\/em>","catalog_promo_type_id":"1"},{"name":"Przychodnia Weterynaryjna - Adamczyk Marek","id":"34","lat":"50.078754","lng":"20.045061","district_url":"krakow-nowa-huta","district":"Nowa Huta <em>XVIII<\/em>","catalog_promo_type_id":"1"},{"name":"Gabinet Weterynaryjny \u201ePRO VIVO ANIMALI\u201d","id":"96","lat":"50.088482","lng":"19.994732","district_url":"krakow-mistrzejowice","district":"Mistrzejowice <em>XV<\/em>","catalog_promo_type_id":"1"},{"name":"Amavet, Gab. Wet.","id":"76","lat":"50.076809","lng":"19.921028","district_url":"krakow-krowodrza-lobzow","district":"Krowodrza\/\u0141obz\u00f3w <em>V<\/em>","catalog_promo_type_id":null},{"name":"Amicus, Gab. Wet. ","id":"10","lat":"50.095463","lng":"19.934671","district_url":"krakow-pradnik-bialy","district":"Pr\u0105dnik Bia\u0142y <em>IV<\/em>","catalog_promo_type_id":null},{"name":"Przysta\u015b Janina, Gab. Wet. ","id":"24","lat":"50.017441","lng":"19.978302","district_url":"krakow-biezanow-prokocim","district":"Bie\u017can\u00f3w-Prokocim <em>XII<\/em>","catalog_promo_type_id":null},{"name":"Gabinet Weterynaryjny - Agama, Beata Kwiatkowska","id":"42","lat":"50.096859","lng":"20.021494","district_url":"krakow-mistrzejowice","district":"Mistrzejowice <em>XV<\/em>","catalog_promo_type_id":null},{"name":"Pogotowie Weterynaryjne","id":"61","lat":"50.043354","lng":"19.882238","district_url":"krakow-zwierzyniec","district":"Zwierzyniec <em>III<\/em>","catalog_promo_type_id":null},{"name":"Centaur, Gab. Wet.","id":"77","lat":"50.022285","lng":"19.929476","district_url":"krakow-lagiewniki-borek-falecki","district":"\u0141agiewniki-Borek Fa\u0142\u0119cki <em>IX<\/em>","catalog_promo_type_id":null},{"name":"Serwacki K., Przych. Wet.","id":"43","lat":"50.009235","lng":"19.962454","district_url":"krakow-podgorze-duchackie","district":"Podg\u00f3rze Duchackie <em>XI<\/em>","catalog_promo_type_id":null},{"name":"Arka Klinika Weterynaryjna S.C.","id":"62","lat":"50.025532","lng":"19.983593","district_url":"krakow-podgorze","district":"Podg\u00f3rze <em>XIII<\/em>","catalog_promo_type_id":null},{"name":"Lessie, Gab. Wet.","id":"78","lat":"50.040543","lng":"20.002747","district_url":"krakow-podgorze","district":"Podg\u00f3rze <em>XIII<\/em>","catalog_promo_type_id":null},{"name":"Fra\u015b Grzegorz, Gab. Wet.","id":"12","lat":"50.087971","lng":"19.940018","district_url":"krakow-pradnik-bialy","district":"Pr\u0105dnik Bia\u0142y <em>IV<\/em>","catalog_promo_type_id":null},{"name":"Lessie, Gab. Wet.","id":"79","lat":"50.044544","lng":"20.000826","district_url":"krakow-podgorze","district":"Podg\u00f3rze <em>XIII<\/em>","catalog_promo_type_id":null},{"name":"Gabinet Weterynaryjny - Andrzej Wandas","id":"13","lat":"50.050480","lng":"19.950312","district_url":"krakow-stare-miasto","district":"Stare Miasto <em>I<\/em>","catalog_promo_type_id":null},{"name":"Sierpniowska-Sa\u0142adyga S., Gab. Wet.","id":"28","lat":"50.054420","lng":"19.918001","district_url":"krakow-zwierzyniec","district":"Zwierzyniec <em>III<\/em>","catalog_promo_type_id":null},{"name":"Barba\u015b A., Kowalik A., Lecznica Dla Zwierz\u0105t","id":"46","lat":"50.082104","lng":"19.886110","district_url":"krakow-bronowice","district":"Bronowice <em>VI<\/em>","catalog_promo_type_id":null},{"name":"Cztery \u0141apy, Gab. Wet.","id":"64","lat":"50.075226","lng":"20.031063","district_url":"krakow-nowa-huta","district":"Nowa Huta <em>XVIII<\/em>","catalog_promo_type_id":null},{"name":"Pustynna, Gab. Wet.","id":"80","lat":"50.003643","lng":"19.914007","district_url":"krakow-swoszowice","district":"Swoszowice <em>X<\/em>","catalog_promo_type_id":null},{"name":"Gabinet Weterynaryjny","id":"14","lat":"50.014206","lng":"20.001318","district_url":"krakow-biezanow-prokocim","district":"Bie\u017can\u00f3w-Prokocim <em>XII<\/em>","catalog_promo_type_id":null},{"name":"Tu\u017anik-Marciniak B., Gab. Wet.","id":"29","lat":"50.078922","lng":"19.899935","district_url":"krakow-bronowice","district":"Bronowice <em>VI<\/em>","catalog_promo_type_id":null},{"name":"Gabinet Weterynaryjny","id":"65","lat":"50.014137","lng":"20.000895","district_url":"krakow-biezanow-prokocim","district":"Bie\u017can\u00f3w-Prokocim <em>XII<\/em>","catalog_promo_type_id":null},{"name":"Drewniak Halina, Gab. Wet.","id":"81","lat":"50.093773","lng":"19.927811","district_url":"krakow-pradnik-bialy","district":"Pr\u0105dnik Bia\u0142y <em>IV<\/em>","catalog_promo_type_id":null},{"name":"Gody\u0144 Anna, Gab. Wet.","id":"15","lat":"50.041466","lng":"19.926493","district_url":"krakow-debniki","district":"D\u0119bniki <em>VIII<\/em>","catalog_promo_type_id":null},{"name":"Klich J., Ku\u0142yk A., Gab. Wet.","id":"31","lat":"50.097172","lng":"19.910927","district_url":"krakow-pradnik-bialy","district":"Pr\u0105dnik Bia\u0142y <em>IV<\/em>","catalog_promo_type_id":null},{"name":"Gabinet Weterynaryjny - Sylwia Polak","id":"50","lat":"50.067520","lng":"19.928078","district_url":"krakow-stare-miasto","district":"Stare Miasto <em>I<\/em>","catalog_promo_type_id":null},{"name":"Gabinet Weterynaryjny","id":"66","lat":"50.094120","lng":"20.053345","district_url":"krakow-wzgorza-krzeslawickie","district":"Wzg\u00f3rza Krzes\u0142awickie <em>XVII<\/em>","catalog_promo_type_id":null},{"name":"Gab. Wet. Przy Schronisku","id":"82","lat":"50.043354","lng":"19.882238","district_url":"krakow-zwierzyniec","district":"Zwierzyniec <em>III<\/em>","catalog_promo_type_id":null},{"name":"Greg-Wet, Gab. Wet.","id":"16","lat":"49.999741","lng":"19.911980","district_url":"krakow-swoszowice","district":"Swoszowice <em>X<\/em>","catalog_promo_type_id":null},{"name":"Miros\u0142aw Ma\u0142ys, Gab. Wet.","id":"33","lat":"50.024590","lng":"19.911909","district_url":"krakow-debniki","district":"D\u0119bniki <em>VIII<\/em>","catalog_promo_type_id":null},{"name":"Gabinet Weterynaryjny - \u017buk Bogus\u0142aw","id":"97","lat":"50.071789","lng":"19.936232","district_url":"krakow-stare-miasto","district":"Stare Miasto <em>I<\/em>","catalog_promo_type_id":null},{"name":"Gabinet Weterynaryjny","id":"69","lat":"50.095276","lng":"19.968220","district_url":"krakow-pradnik-czerwony","district":"Pr\u0105dnik Czerwony <em>III<\/em>","catalog_promo_type_id":null},{"name":"RAJVET, Zarobkiewicz Micha\u0142","id":"83","lat":"49.988125","lng":"19.962191","district_url":"krakow-swoszowice","district":"Swoszowice <em>X<\/em>","catalog_promo_type_id":null},{"name":"Kutrzuba Tomasz, Gab. Wet.  ","id":"18","lat":"50.077965","lng":"19.979774","district_url":"krakow-pradnik-czerwony","district":"Pr\u0105dnik Czerwony <em>III<\/em>","catalog_promo_type_id":null},{"name":"Szostok i T\u0142ustochowicz, Gab. Wet. Sp.p.","id":"53","lat":"50.028095","lng":"19.919737","district_url":"krakow-debniki","district":"D\u0119bniki <em>VIII<\/em>","catalog_promo_type_id":null},{"name":"Gabinet Weterynaryjny","id":"70","lat":"50.019863","lng":"20.006310","district_url":"krakow-biezanow-prokocim","district":"Bie\u017can\u00f3w-Prokocim <em>XII<\/em>","catalog_promo_type_id":null},{"name":"Gabinet Weterynaryjny","id":"2","lat":"50.078815","lng":"19.967867","district_url":"krakow-pradnik-czerwony","district":"Pr\u0105dnik Czerwony <em>III<\/em>","catalog_promo_type_id":null},{"name":"Gabinet Weterynaryjny","id":"19","lat":"50.083801","lng":"19.943361","district_url":"krakow-pradnik-bialy","district":"Pr\u0105dnik Bia\u0142y <em>IV<\/em>","catalog_promo_type_id":null},{"name":"Serwacki K., Przych. Wet.","id":"37","lat":"50.009235","lng":"19.962454","district_url":"krakow-podgorze-duchackie","district":"Podg\u00f3rze Duchackie <em>XI<\/em>","catalog_promo_type_id":null},{"name":"Mazur T., Gab. Wet.","id":"55","lat":"50.036758","lng":"19.921291","district_url":"krakow-debniki","district":"D\u0119bniki <em>VIII<\/em>","catalog_promo_type_id":null},{"name":"Gabinet Weterynaryjny","id":"71","lat":"50.080444","lng":"19.859695","district_url":"krakow-bronowice","district":"Bronowice <em>VI<\/em>","catalog_promo_type_id":null},{"name":"Nasze Zwierzaki, Gab. Wet.","id":"86","lat":"50.091316","lng":"19.961996","district_url":"krakow-pradnik-czerwony","district":"Pr\u0105dnik Czerwony <em>III<\/em>","catalog_promo_type_id":null},{"name":"Adamczyk Ewa, Gab. Wet.","id":"5","lat":"50.026501","lng":"19.930059","district_url":"krakow-lagiewniki-borek-falecki","district":"\u0141agiewniki-Borek Fa\u0142\u0119cki <em>IX<\/em>","catalog_promo_type_id":null},{"name":"Miszczak A., Kawiecka J., Gab. Wet. ","id":"20","lat":"50.089520","lng":"19.925533","district_url":"krakow-pradnik-bialy","district":"Pr\u0105dnik Bia\u0142y <em>IV<\/em>","catalog_promo_type_id":null},{"name":"Bogacz El\u017cbieta, Gab. Wet.","id":"38","lat":"50.091599","lng":"19.968676","district_url":"krakow-pradnik-czerwony","district":"Pr\u0105dnik Czerwony <em>III<\/em>","catalog_promo_type_id":null},{"name":"Arka Diagnostyka","id":"56","lat":"50.025532","lng":"19.983593","district_url":"krakow-podgorze","district":"Podg\u00f3rze <em>XIII<\/em>","catalog_promo_type_id":null},{"name":"Gabinet Weterynaryjny","id":"72","lat":"50.080158","lng":"20.006609","district_url":"krakow-czyzyny","district":"Czy\u017cyny <em>XIV<\/em>","catalog_promo_type_id":null},{"name":"Gabinet Weterynaryjny - Anna Gody\u0144-Buszewicz","id":"87","lat":"50.046204","lng":"19.931671","district_url":"krakow-debniki","district":"D\u0119bniki <em>VIII<\/em>","catalog_promo_type_id":null},{"name":"Help, Gab. Wet.","id":"6","lat":"50.090115","lng":"19.912367","district_url":"krakow-pradnik-bialy","district":"Pr\u0105dnik Bia\u0142y <em>IV<\/em>","catalog_promo_type_id":null},{"name":"Musia\u0142 Antoni, Gab. Wet. ","id":"21","lat":"50.083576","lng":"19.973593","district_url":"krakow-pradnik-czerwony","district":"Pr\u0105dnik Czerwony <em>III<\/em>","catalog_promo_type_id":null},{"name":"Gabinet Weterynaryjny","id":"58","lat":"50.079338","lng":"20.010876","district_url":"krakow-czyzyny","district":"Czy\u017cyny <em>XIV<\/em>","catalog_promo_type_id":null},{"name":"Agouti, Gab. Wet.","id":"74","lat":"50.086525","lng":"19.925758","district_url":"krakow-pradnik-bialy","district":"Pr\u0105dnik Bia\u0142y <em>IV<\/em>","catalog_promo_type_id":null},{"name":"Morgan B., Kalisz E., Lecznica Wet.","id":"88","lat":"50.000957","lng":"19.914568","district_url":"krakow-swoszowice","district":"Swoszowice <em>X<\/em>","catalog_promo_type_id":null},{"name":"Maxvet","id":"93","lat":"50.087883","lng":"19.951122","district_url":"krakow-pradnik-bialy","district":"Pr\u0105dnik Bia\u0142y <em>IV<\/em>","catalog_promo_type_id":null},{"name":"Polak Sylwia , Gab. Wet. ","id":"22","lat":"50.056355","lng":"20.017857","district_url":"krakow-biezanow-prokocim","district":"Bie\u017can\u00f3w-Prokocim <em>XII<\/em>","catalog_promo_type_id":null},{"name":"Ku\u0142yk Olga, Gab. Wet.","id":"40","lat":"50.078068","lng":"19.979519","district_url":"krakow-pradnik-czerwony","district":"Pr\u0105dnik Czerwony <em>III<\/em>","catalog_promo_type_id":null},{"name":"Zielonka A., Przych. Wet.","id":"59","lat":"50.094120","lng":"20.053345","district_url":"krakow-wzgorza-krzeslawickie","district":"Wzg\u00f3rza Krzes\u0142awickie <em>XVII<\/em>","catalog_promo_type_id":null},{"name":"Alvet, Gab. Wet.","id":"75","lat":"50.078133","lng":"19.896727","district_url":"krakow-bronowice","district":"Bronowice <em>VI<\/em>","catalog_promo_type_id":null},{"name":"Gabinet Weterynaryjny","id":"8","lat":"50.021873","lng":"19.974861","district_url":"krakow-podgorze-duchackie","district":"Podg\u00f3rze Duchackie <em>XI<\/em>","catalog_promo_type_id":null},{"name":"Gabinet Weterynaryjny","id":"23","lat":"50.067196","lng":"19.925636","district_url":"krakow-krowodrza-lobzow","district":"Krowodrza\/\u0141obz\u00f3w <em>V<\/em>","catalog_promo_type_id":null},{"name":"Lessie, Gab. Wet. Grzegorz Stacharski","id":"41","lat":"50.036987","lng":"19.995672","district_url":"krakow-podgorze","district":"Podg\u00f3rze <em>XIII<\/em>","catalog_promo_type_id":null}]